$GPGGA,135625.000,4816.0589733,N,12417.0264135,W,2,26,0.6,-0.626,M,-20.068,M,,*49
$GPGGA,135625.500,4816.0587520,N,12417.0259135,W,2,26,0.6,-0.617,M,-20.068,M,,*4E
$GPGGA,135626.000,4816.0585146,N,12417.0254220,W,2,26,0.6,-0.607,M,-20.068,M,,*45
$GPGGA,135626.500,4816.0582844,N,12417.0249133,W,2,26,0.6,-0.607,M,-20.068,M,,*41
$GPGGA,135627.000,4816.0580322,N,12417.0244509,W,2,26,0.6,-0.619,M,-20.068,M,,*43
$GPGGA,135627.500,4816.0577996,N,12417.0239783,W,2,26,0.6,-0.635,M,-20.068,M,,*4F
$GPGGA,135628.000,4816.0575853,N,12417.0234985,W,2,26,0.6,-0.631,M,-20.068,M,,*4E
$GPGGA,135628.500,4816.0573606,N,12417.0230160,W,2,26,0.6,-0.635,M,-20.068,M,,*40
$GPGGA,135629.000,4816.0571391,N,12417.0225189,W,2,26,0.6,-0.628,M,-20.068,M,,*42
$PADCP,1,20250530,065126.02,-25504.00
$GPGGA,135629.500,4816.0569076,N,12417.0220048,W,2,26,0.6,-0.601,M,-20.068,M,,*46
$GPGGA,135630.000,4816.0566779,N,12417.0214715,W,2,26,0.6,-0.597,M,-20.068,M,,*48
$GPGGA,135630.500,4816.0564492,N,12417.0209216,W,2,26,0.6,-0.576,M,-20.068,M,,*4C
$GPGGA,135631.000,4816.0562081,N,12417.0204097,W,2,26,0.6,-0.585,M,-20.068,M,,*42
$PADCP,2,20250530,065128.00,-25504.00
$GPGGA,135631.500,4816.0559768,N,12417.0198760,W,2,26,0.6,-0.597,M,-20.068,M,,*45
$GPGGA,135632.000,4816.0557479,N,12417.0193704,W,2,26,0.6,-0.613,M,-20.068,M,,*48
$GPGGA,135632.500,4816.0555247,N,12417.0188473,W,2,26,0.6,-0.641,M,-20.068,M,,*4A
$GPGGA,135633.000,4816.0553180,N,12417.0183317,W,2,26,0.6,-0.640,M,-20.068,M,,*4F
$PADCP,3,20250530,065130.01,-25504.00
$GPGGA,135633.500,4816.0550939,N,12417.0178234,W,2,26,0.6,-0.637,M,-20.068,M,,*47
$GPGGA,135634.000,4816.0548912,N,12417.0172841,W,2,26,0.6,-0.622,M,-20.068,M,,*43
$GPGGA,135634.500,4816.0546738,N,12417.0167486,W,2,26,0.6,-0.613,M,-20.068,M,,*4F
$GPGGA,135635.000,4816.0544483,N,12417.0162308,W,2,26,0.6,-0.621,M,-20.068,M,,*4F
$PADCP,4,20250530,065132.00,-25504.00
$GPGGA,135635.500,4816.0542061,N,12417.0157038,W,2,26,0.6,-0.626,M,-20.068,M,,*45
$GPGGA,135636.000,4816.0539787,N,12417.0151709,W,2,26,0.6,-0.611,M,-20.068,M,,*47
$GPGGA,135636.500,4816.0537875,N,12417.0145844,W,2,26,0.6,-0.582,M,-20.068,M,,*44
$GPGGA,135637.000,4816.0535827,N,12417.0140462,W,2,26,0.6,-0.567,M,-20.068,M,,*43
$PADCP,5,20250530,065134.00,-25504.00
$GPGGA,135637.500,4816.0533474,N,12417.0135053,W,2,26,0.6,-0.577,M,-20.068,M,,*4F
$GPGGA,135638.000,4816.0531101,N,12417.0129591,W,2,26,0.6,-0.581,M,-20.068,M,,*4F
$GPGGA,135638.500,4816.0529011,N,12417.0123655,W,2,26,0.6,-0.572,M,-20.068,M,,*4E
$GPGGA,135639.000,4816.0527052,N,12417.0117951,W,2,26,0.6,-0.568,M,-20.068,M,,*44
$PADCP,6,20250530,065136.02,-25504.00
$GPGGA,135639.500,4816.0524659,N,12417.0112614,W,2,26,0.6,-0.583,M,-20.068,M,,*41
$GPGGA,135640.000,4816.0522502,N,12417.0107206,W,2,26,0.6,-0.591,M,-20.068,M,,*41
$GPGGA,135640.500,4816.0520504,N,12417.0101688,W,2,26,0.6,-0.581,M,-20.068,M,,*45
$GPGGA,135641.000,4816.0518431,N,12417.0096450,W,2,26,0.6,-0.585,M,-20.068,M,,*41
$PADCP,7,20250530,065138.02,-25504.00
$GPGGA,135641.500,4816.0516334,N,12417.0090922,W,2,26,0.6,-0.584,M,-20.068,M,,*47
$GPGGA,135642.000,4816.0514226,N,12417.0085595,W,2,26,0.6,-0.582,M,-20.068,M,,*43
$GPGGA,135642.500,4816.0512340,N,12417.0079710,W,2,26,0.6,-0.581,M,-20.068,M,,*4E
$GPGGA,135643.000,4816.0510412,N,12417.0073979,W,2,26,0.6,-0.584,M,-20.068,M,,*46
$PADCP,8,20250530,065140.00,-25504.00
$GPGGA,135643.500,4816.0508305,N,12417.0068255,W,2,26,0.6,-0.614,M,-20.068,M,,*4E
$GPGGA,135644.000,4816.0506283,N,12417.0062513,W,2,26,0.6,-0.624,M,-20.068,M,,*41
$GPGGA,135644.500,4816.0504367,N,12417.0056914,W,2,26,0.6,-0.616,M,-20.068,M,,*40
$GPGGA,135645.000,4816.0502543,N,12417.0051167,W,2,26,0.6,-0.619,M,-20.068,M,,*46
$PADCP,9,20250530,065142.00,-25504.00
$GPGGA,135645.500,4816.0500705,N,12417.0045717,W,2,26,0.6,-0.621,M,-20.068,M,,*4E
$GPGGA,135646.000,4816.0498660,N,12417.0040360,W,2,26,0.6,-0.628,M,-20.068,M,,*42
$GPGGA,135646.500,4816.0496886,N,12417.0034678,W,2,26,0.6,-0.622,M,-20.068,M,,*4A
$GPGGA,135647.000,4816.0495153,N,12417.0028791,W,2,26,0.6,-0.594,M,-20.068,M,,*49
$PADCP,10,20250530,065144.00,-25504.00
$GPGGA,135647.500,4816.0493221,N,12417.0023183,W,2,26,0.6,-0.582,M,-20.068,M,,*45
$GPGGA,135648.000,4816.0491485,N,12417.0017057,W,2,26,0.6,-0.556,M,-20.068,M,,*43
$GPGGA,135648.500,4816.0489503,N,12417.0011199,W,2,26,0.6,-0.544,M,-20.068,M,,*46
$GPGGA,135649.000,4816.0487509,N,12417.0005147,W,2,26,0.6,-0.534,M,-20.068,M,,*47
$PADCP,11,20250530,065146.00,-25504.00
$GPGGA,135649.500,4816.0485475,N,12416.9999314,W,2,26,0.6,-0.506,M,-20.068,M,,*4B
$GPGGA,135650.000,4816.0483549,N,12416.9993241,W,2,26,0.6,-0.500,M,-20.068,M,,*43
$GPGGA,135650.500,4816.0481724,N,12416.9987187,W,2,26,0.6,-0.495,M,-20.068,M,,*4C
$GPGGA,135651.000,4816.0479713,N,12416.9981160,W,2,26,0.6,-0.519,M,-20.068,M,,*41
$PADCP,12,20250530,065148.00,-25504.00
$GPGGA,135651.500,4816.0478062,N,12416.9974994,W,2,26,0.6,-0.538,M,-20.068,M,,*4E
$GPGGA,135652.000,4816.0476051,N,12416.9969151,W,2,26,0.6,-0.554,M,-20.068,M,,*41
$GPGGA,135652.500,4816.0474477,N,12416.9963074,W,2,26,0.6,-0.569,M,-20.068,M,,*44
$GPGGA,135653.000,4816.0473116,N,12416.9957029,W,2,26,0.6,-0.570,M,-20.068,M,,*42
$PADCP,13,20250530,065150.00,-25504.00
$GPGGA,135653.500,4816.0471536,N,12416.9951598,W,2,26,0.6,-0.596,M,-20.068,M,,*42
$GPGGA,135654.000,4816.0470117,N,12416.9945774,W,2,26,0.6,-0.604,M,-20.068,M,,*4B
$GPGGA,135654.500,4816.0468544,N,12416.9940235,W,2,26,0.6,-0.607,M,-20.068,M,,*43
$GPGGA,135655.000,4816.0467073,N,12416.9934236,W,2,26,0.6,-0.601,M,-20.068,M,,*4F
$PADCP,14,20250530,065152.00,-25504.00
$GPGGA,135655.500,4816.0465472,N,12416.9928468,W,2,26,0.6,-0.591,M,-20.068,M,,*47
$GPGGA,135656.000,4816.0463964,N,12416.9922367,W,2,26,0.6,-0.579,M,-20.068,M,,*49
$GPGGA,135656.500,4816.0462232,N,12416.9916460,W,2,26,0.6,-0.568,M,-20.068,M,,*42
$GPGGA,135657.000,4816.0460605,N,12416.9910180,W,2,26,0.6,-0.558,M,-20.068,M,,*4A
$PADCP,15,20250530,065154.00,-25504.00
$GPGGA,135657.500,4816.0459177,N,12416.9904005,W,2,26,0.6,-0.548,M,-20.068,M,,*4F
$GPGGA,135658.000,4816.0457503,N,12416.9897869,W,2,26,0.6,-0.544,M,-20.068,M,,*49
$GPGGA,135658.500,4816.0455867,N,12416.9891717,W,2,26,0.6,-0.543,M,-20.068,M,,*46
$GPGGA,135659.000,4816.0454494,N,12416.9885459,W,2,26,0.6,-0.518,M,-20.068,M,,*41
$PADCP,16,20250530,065156.00,-25504.00
$GPGGA,135659.500,4816.0452922,N,12416.9879510,W,2,26,0.6,-0.505,M,-20.068,M,,*41
$GPGGA,135700.000,4816.0451372,N,12416.9873247,W,2,26,0.6,-0.500,M,-20.068,M,,*4F
$GPGGA,135700.500,4816.0449622,N,12416.9867358,W,2,26,0.6,-0.503,M,-20.068,M,,*4A
$GPGGA,135701.000,4816.0448025,N,12416.9861101,W,2,26,0.6,-0.502,M,-20.068,M,,*47
$PADCP,17,20250530,065158.00,-25504.00
$GPGGA,135701.500,4816.0446625,N,12416.9854769,W,2,26,0.6,-0.503,M,-20.068,M,,*45
$GPGGA,135702.000,4816.0445134,N,12416.9848708,W,2,26,0.6,-0.520,M,-20.068,M,,*4C
$GPGGA,135702.500,4816.0443586,N,12416.9842542,W,2,26,0.6,-0.540,M,-20.068,M,,*42
$GPGGA,135703.000,4816.0442250,N,12416.9836697,W,2,26,0.6,-0.542,M,-20.068,M,,*41
$PADCP,18,20250530,065200.00,-25504.00
$GPGGA,135703.500,4816.0441027,N,12416.9830854,W,2,26,0.6,-0.550,M,-20.068,M,,*41
$GPGGA,135704.000,4816.0439859,N,12416.9825123,W,2,26,0.6,-0.559,M,-20.068,M,,*49
$GPGGA,135704.500,4816.0438817,N,12416.9819245,W,2,26,0.6,-0.567,M,-20.068,M,,*46
$GPGGA,135705.000,4816.0437519,N,12416.9813502,W,2,26,0.6,-0.580,M,-20.068,M,,*49
$PADCP,19,20250530,065202.02,-25504.00
$GPGGA,135705.500,4816.0436318,N,12416.9807304,W,2,26,0.6,-0.570,M,-20.068,M,,*40
$GPGGA,135706.000,4816.0435145,N,12416.9801078,W,2,26,0.6,-0.551,M,-20.068,M,,*42
$GPGGA,135706.500,4816.0433903,N,12416.9794649,W,2,26,0.6,-0.540,M,-20.068,M,,*4C
$GPGGA,135707.000,4816.0432399,N,12416.9788482,W,2,26,0.6,-0.520,M,-20.068,M,,*4E
$PADCP,20,20250530,065204.00,-25504.00
$GPGGA,135707.500,4816.0430868,N,12416.9782079,W,2,26,0.6,-0.515,M,-20.068,M,,*40
$GPGGA,135708.000,4816.0429837,N,12416.9775795,W,2,26,0.6,-0.489,M,-20.068,M,,*41
$GPGGA,135708.500,4816.0428545,N,12416.9769736,W,2,26,0.6,-0.479,M,-20.068,M,,*46
$GPGGA,135709.000,4816.0427427,N,12416.9763547,W,2,26,0.6,-0.473,M,-20.068,M,,*4C
$PADCP,21,20250530,065206.00,-25504.00
$GPGGA,135709.500,4816.0425992,N,12416.9757173,W,2,26,0.6,-0.476,M,-20.068,M,,*49
$GPGGA,135710.000,4816.0424831,N,12416.9750597,W,2,26,0.6,-0.481,M,-20.068,M,,*4C
$GPGGA,135710.500,4816.0423548,N,12416.9743904,W,2,26,0.6,-0.464,M,-20.068,M,,*42
$GPGGA,135711.000,4816.0422262,N,12416.9737265,W,2,26,0.6,-0.468,M,-20.068,M,,*4B
$PADCP,22,20250530,065208.00,-25504.00
$GPGGA,135711.500,4816.0421146,N,12416.9730482,W,2,26,0.6,-0.475,M,-20.068,M,,*4C
$GPGGA,135712.000,4816.0420077,N,12416.9724277,W,2,26,0.6,-0.487,M,-20.068,M,,*4C
$GPGGA,135712.500,4816.0419112,N,12416.9718249,W,2,26,0.6,-0.516,M,-20.068,M,,*4A
$GPGGA,135713.000,4816.0418361,N,12416.9712365,W,2,26,0.6,-0.519,M,-20.068,M,,*43
$PADCP,23,20250530,065210.02,-25504.00
$GPGGA,135713.500,4816.0417522,N,12416.9706545,W,2,26,0.6,-0.526,M,-20.067,M,,*4A
$GPGGA,135714.000,4816.0417065,N,12416.9700587,W,2,26,0.6,-0.516,M,-20.067,M,,*45
$GPGGA,135714.500,4816.0416240,N,12416.9694596,W,2,26,0.6,-0.505,M,-20.067,M,,*4A
$GPGGA,135715.000,4816.0415595,N,12416.9688349,W,2,26,0.6,-0.505,M,-20.067,M,,*4B
$PADCP,24,20250530,065212.00,-25504.00
$GPGGA,135715.500,4816.0414881,N,12416.9682029,W,2,26,0.6,-0.480,M,-20.067,M,,*44
$GPGGA,135716.000,4816.0414228,N,12416.9675689,W,2,26,0.6,-0.487,M,-20.067,M,,*48
$GPGGA,135716.500,4816.0413637,N,12416.9669644,W,2,26,0.6,-0.488,M,-20.067,M,,*43
$GPGGA,135717.000,4816.0412650,N,12416.9663702,W,2,26,0.6,-0.511,M,-20.067,M,,*4F
$PADCP,25,20250530,065214.00,-25504.00
$GPGGA,135717.500,4816.0411912,N,12416.9657961,W,2,26,0.6,-0.507,M,-20.067,M,,*4B
$GPGGA,135718.000,4816.0411143,N,12416.9652289,W,2,26,0.6,-0.501,M,-20.067,M,,*43
$GPGGA,135718.500,4816.0410484,N,12416.9646499,W,2,26,0.6,-0.491,M,-20.067,M,,*43
$GPGGA,135719.000,4816.0409227,N,12416.9640793,W,2,26,0.6,-0.490,M,-20.067,M,,*4E
$PADCP,26,20250530,065216.00,-25504.00
$GPGGA,135719.500,4816.0408126,N,12416.9634708,W,2,26,0.6,-0.477,M,-20.067,M,,*40
$GPGGA,135720.000,4816.0406622,N,12416.9628727,W,2,26,0.6,-0.454,M,-20.067,M,,*43
$GPGGA,135720.500,4816.0405322,N,12416.9622353,W,2,26,0.6,-0.433,M,-20.067,M,,*4C
$GPGGA,135721.000,4816.0403752,N,12416.9616134,W,2,26,0.6,-0.409,M,-20.067,M,,*40
$PADCP,27,20250530,065218.00,-25504.00
$GPGGA,135721.500,4816.0402168,N,12416.9610062,W,2,26,0.6,-0.423,M,-20.067,M,,*47
$GPGGA,135722.000,4816.0400731,N,12416.9603994,W,2,26,0.6,-0.434,M,-20.067,M,,*4D
$GPGGA,135722.500,4816.0399170,N,12416.9598713,W,2,26,0.6,-0.461,M,-20.067,M,,*4C
$GPGGA,135723.000,4816.0397927,N,12416.9593006,W,2,26,0.6,-0.486,M,-20.067,M,,*4D
$PADCP,28,20250530,065220.00,-25504.00
$GPGGA,135723.500,4816.0396422,N,12416.9587844,W,2,26,0.6,-0.505,M,-20.067,M,,*40
$GPGGA,135724.000,4816.0394996,N,12416.9582361,W,2,26,0.6,-0.508,M,-20.067,M,,*46
$GPGGA,135724.500,4816.0393571,N,12416.9577000,W,2,26,0.6,-0.486,M,-20.067,M,,*48
$GPGGA,135725.000,4816.0391970,N,12416.9571290,W,2,26,0.6,-0.469,M,-20.067,M,,*4F
$PADCP,29,20250530,065222.00,-25504.00
$GPGGA,135725.500,4816.0390479,N,12416.9565458,W,2,26,0.6,-0.429,M,-20.067,M,,*4C
$GPGGA,135726.000,4816.0388595,N,12416.9559764,W,2,26,0.6,-0.411,M,-20.067,M,,*48
$GPGGA,135726.500,4816.0386808,N,12416.9553822,W,2,26,0.6,-0.402,M,-20.067,M,,*4F
$GPGGA,135727.000,4816.0384877,N,12416.9548048,W,2,26,0.6,-0.402,M,-20.067,M,,*4F
$PADCP,30,20250530,065224.00,-25504.00
$GPGGA,135727.500,4816.0383269,N,12416.9542138,W,2,26,0.6,-0.408,M,-20.067,M,,*4E
$GPGGA,135728.000,4816.0381526,N,12416.9536439,W,2,26,0.6,-0.419,M,-20.067,M,,*4D
$GPGGA,135728.500,4816.0379759,N,12416.9530988,W,2,26,0.6,-0.444,M,-20.067,M,,*4C
$GPGGA,135729.000,4816.0378009,N,12416.9525347,W,2,26,0.6,-0.444,M,-20.067,M,,*46
$PADCP,31,20250530,065226.00,-25504.00
$GPGGA,135729.500,4816.0376330,N,12416.9519806,W,2,26,0.6,-0.446,M,-20.067,M,,*47
$GPGGA,135730.000,4816.0374754,N,12416.9513926,W,2,26,0.6,-0.437,M,-20.067,M,,*41
$GPGGA,135730.500,4816.0372718,N,12416.9508596,W,2,26,0.6,-0.453,M,-20.067,M,,*45
$GPGGA,135731.000,4816.0370781,N,12416.9502701,W,2,26,0.6,-0.452,M,-20.067,M,,*44
$PADCP,32,20250530,065228.00,-25504.00
$GPGGA,135731.500,4816.0368999,N,12416.9496848,W,2,26,0.6,-0.432,M,-20.067,M,,*47
$GPGGA,135732.000,4816.0367406,N,12416.9490889,W,2,26,0.6,-0.426,M,-20.067,M,,*4B
$GPGGA,135732.500,4816.0365618,N,12416.9485321,W,2,26,0.6,-0.429,M,-20.067,M,,*43
$GPGGA,135733.000,4816.0363536,N,12416.9479835,W,2,26,0.6,-0.453,M,-20.067,M,,*4E
$PADCP,33,20250530,065230.00,-25504.00
$GPGGA,135733.500,4816.0361871,N,12416.9473856,W,2,26,0.6,-0.446,M,-20.067,M,,*4C
$GPGGA,135734.000,4816.0360120,N,12416.9467982,W,2,26,0.6,-0.437,M,-20.067,M,,*49
$GPGGA,135734.500,4816.0358656,N,12416.9461868,W,2,26,0.6,-0.450,M,-20.067,M,,*43
$GPGGA,135735.000,4816.0356738,N,12416.9456554,W,2,26,0.6,-0.468,M,-20.067,M,,*4D
$PADCP,34,20250530,065232.00,-25504.00
$GPGGA,135735.500,4816.0354959,N,12416.9450997,W,2,26,0.6,-0.483,M,-20.067,M,,*43
$GPGGA,135736.000,4816.0353534,N,12416.9445433,W,2,26,0.6,-0.466,M,-20.067,M,,*49
$GPGGA,135736.500,4816.0351711,N,12416.9440327,W,2,26,0.6,-0.461,M,-20.067,M,,*4B
$GPGGA,135737.000,4816.0349975,N,12416.9435061,W,2,26,0.6,-0.441,M,-20.067,M,,*4B
$PADCP,35,20250530,065234.00,-25504.00
$GPGGA,135737.500,4816.0348070,N,12416.9429571,W,2,26,0.6,-0.414,M,-20.067,M,,*4A
$GPGGA,135738.000,4816.0346355,N,12416.9423854,W,2,26,0.6,-0.381,M,-20.067,M,,*41
$GPGGA,135738.500,4816.0344369,N,12416.9417982,W,2,26,0.6,-0.354,M,-20.067,M,,*4C
$GPGGA,135739.000,4816.0342367,N,12416.9411939,W,2,26,0.6,-0.342,M,-20.067,M,,*41
$PADCP,36,20250530,065236.00,-25504.00
$GPGGA,135739.500,4816.0340335,N,12416.9405620,W,2,26,0.6,-0.327,M,-20.067,M,,*40
$GPGGA,135740.000,4816.0338189,N,12416.9399565,W,2,26,0.6,-0.332,M,-20.067,M,,*45
$GPGGA,135740.500,4816.0336186,N,12416.9393453,W,2,26,0.6,-0.349,M,-20.067,M,,*43
$GPGGA,135741.000,4816.0334128,N,12416.9387888,W,2,26,0.6,-0.382,M,-20.067,M,,*49
$PADCP,37,20250530,065238.00,-25504.00
$GPGGA,135741.500,4816.0332031,N,12416.9382537,W,2,26,0.6,-0.432,M,-20.067,M,,*43
$GPGGA,135742.000,4816.0330533,N,12416.9377110,W,2,26,0.6,-0.456,M,-20.067,M,,*49
$GPGGA,135742.500,4816.0328836,N,12416.9372241,W,2,26,0.6,-0.480,M,-20.067,M,,*44
$GPGGA,135743.000,4816.0327349,N,12416.9367149,W,2,26,0.6,-0.494,M,-20.067,M,,*46
$PADCP,38,20250530,065240.00,-25504.00
$GPGGA,135743.500,4816.0325313,N,12416.9362142,W,2,26,0.6,-0.496,M,-20.067,M,,*42
$GPGGA,135744.000,4816.0323655,N,12416.9356509,W,2,26,0.6,-0.471,M,-20.067,M,,*44
$GPGGA,135744.500,4816.0321959,N,12416.9350667,W,2,26,0.6,-0.429,M,-20.067,M,,*40
$GPGGA,135745.000,4816.0320040,N,12416.9345133,W,2,26,0.6,-0.418,M,-20.067,M,,*44
$PADCP,39,20250530,065242.02,-25504.00
$GPGGA,135745.500,4816.0318174,N,12416.9339212,W,2,26,0.6,-0.408,M,-20.067,M,,*46
$GPGGA,135746.000,4816.0316297,N,12416.9333573,W,2,26,0.6,-0.406,M,-20.067,M,,*44
$GPGGA,135746.500,4816.0314747,N,12416.9327621,W,2,26,0.6,-0.404,M,-20.067,M,,*48
$GPGGA,135747.000,4816.0312816,N,12416.9322347,W,2,26,0.6,-0.416,M,-20.067,M,,*42
$PADCP,40,20250530,065244.00,-25504.00
$GPGGA,135747.500,4816.0310883,N,12416.9316993,W,2,26,0.6,-0.422,M,-20.067,M,,*4A
$GPGGA,135748.000,4816.0309124,N,12416.9311733,W,2,26,0.6,-0.400,M,-20.067,M,,*4F
$GPGGA,135748.500,4816.0307400,N,12416.9306330,W,2,26,0.6,-0.374,M,-20.067,M,,*42
$GPGGA,135749.000,4816.0305709,N,12416.9300665,W,2,26,0.6,-0.363,M,-20.067,M,,*4B
$PADCP,41,20250530,065246.00,-25504.00
$GPGGA,135749.500,4816.0303674,N,12416.9295260,W,2,26,0.6,-0.377,M,-20.067,M,,*4A
$GPGGA,135750.000,4816.0301668,N,12416.9289297,W,2,26,0.6,-0.383,M,-20.067,M,,*46
$GPGGA,135750.500,4816.0299673,N,12416.9283576,W,2,26,0.6,-0.367,M,-20.067,M,,*41
$GPGGA,135751.000,4816.0297822,N,12416.9277720,W,2,26,0.6,-0.355,M,-20.067,M,,*4A
$PADCP,42,20250530,065248.00,-25504.00
$GPGGA,135751.500,4816.0296032,N,12416.9272156,W,2,26,0.6,-0.364,M,-20.067,M,,*47
$GPGGA,135752.000,4816.0294075,N,12416.9266705,W,2,26,0.6,-0.403,M,-20.067,M,,*43
$GPGGA,135752.500,4816.0292325,N,12416.9261401,W,2,26,0.6,-0.433,M,-20.067,M,,*45
$GPGGA,135753.000,4816.0290780,N,12416.9256086,W,2,26,0.6,-0.438,M,-20.067,M,,*4C
$PADCP,43,20250530,065250.02,-25504.00
$GPGGA,135753.500,4816.0289143,N,12416.9250791,W,2,26,0.6,-0.435,M,-20.067,M,,*42
$GPGGA,135754.000,4816.0287367,N,12416.9245090,W,2,26,0.6,-0.421,M,-20.067,M,,*4D
$GPGGA,135754.500,4816.0285538,N,12416.9239395,W,2,26,0.6,-0.393,M,-20.067,M,,*45
$GPGGA,135755.000,4816.0283847,N,12416.9233277,W,2,26,0.6,-0.361,M,-20.067,M,,*48
$PADCP,44,20250530,065252.00,-25504.00
$GPGGA,135755.500,4816.0282265,N,12416.9226981,W,2,26,0.6,-0.353,M,-20.067,M,,*41
$GPGGA,135756.000,4816.0280379,N,12416.9220827,W,2,26,0.6,-0.359,M,-20.067,M,,*48
$GPGGA,135756.500,4816.0278449,N,12416.9214854,W,2,26,0.6,-0.377,M,-20.067,M,,*41
$GPGGA,135757.000,4816.0276946,N,12416.9208561,W,2,26,0.6,-0.381,M,-20.067,M,,*46
$PADCP,45,20250530,065254.00,-25504.00
$GPGGA,135757.500,4816.0275605,N,12416.9202755,W,2,26,0.6,-0.388,M,-20.067,M,,*4E
$GPGGA,135758.000,4816.0274003,N,12416.9197278,W,2,26,0.6,-0.416,M,-20.067,M,,*40
$GPGGA,135758.500,4816.0272515,N,12416.9191798,W,2,26,0.6,-0.440,M,-20.067,M,,*4F
$GPGGA,135759.000,4816.0271128,N,12416.9186209,W,2,26,0.6,-0.449,M,-20.067,M,,*40
$PADCP,46,20250530,065256.00,-25503.00
$GPGGA,135759.500,4816.0269920,N,12416.9180618,W,2,26,0.6,-0.430,M,-20.067,M,,*40
$GPGGA,135800.000,4816.0268648,N,12416.9174769,W,2,26,0.6,-0.392,M,-20.067,M,,*45
$GPGGA,135800.500,4816.0267108,N,12416.9168771,W,2,26,0.6,-0.362,M,-20.067,M,,*47
$GPGGA,135801.000,4816.0265466,N,12416.9162204,W,2,26,0.6,-0.341,M,-20.067,M,,*40
$PADCP,47,20250530,065258.00,-25504.00
$GPGGA,135801.500,4816.0263987,N,12416.9155524,W,2,26,0.6,-0.322,M,-20.067,M,,*45
$GPGGA,135802.000,4816.0262552,N,12416.9148644,W,2,26,0.6,-0.326,M,-20.067,M,,*4B
$GPGGA,135802.500,4816.0261224,N,12416.9142002,W,2,27,0.6,-0.344,M,-20.067,M,,*40
$GPGGA,135803.000,4816.0259913,N,12416.9135491,W,2,27,0.6,-0.379,M,-20.067,M,,*40
$PADCP,48,20250530,065300.00,-25504.00
$GPGGA,135803.500,4816.0258946,N,12416.9129410,W,2,27,0.6,-0.421,M,-20.067,M,,*4A
$GPGGA,135804.000,4816.0258187,N,12416.9123705,W,2,27,0.6,-0.454,M,-20.067,M,,*42
$GPGGA,135804.500,4816.0257330,N,12416.9118328,W,2,27,0.6,-0.485,M,-20.067,M,,*49
$GPGGA,135805.000,4816.0256640,N,12416.9112804,W,2,27,0.6,-0.504,M,-20.067,M,,*49
$PADCP,49,20250530,065302.02,-25504.00
$GPGGA,135805.500,4816.0255924,N,12416.9107267,W,2,26,0.6,-0.489,M,-20.067,M,,*4C
$GPGGA,135806.000,4816.0255176,N,12416.9101188,W,2,26,0.6,-0.460,M,-20.067,M,,*46
$GPGGA,135806.500,4816.0254361,N,12416.9094695,W,2,26,0.6,-0.418,M,-20.067,M,,*4F
$GPGGA,135807.000,4816.0253324,N,12416.9088011,W,2,26,0.6,-0.391,M,-20.067,M,,*4C
$PADCP,50,20250530,065304.00,-25504.00
$GPGGA,135807.500,4816.0252224,N,12416.9081051,W,2,26,0.6,-0.356,M,-20.066,M,,*4E
$GPGGA,135808.000,4816.0251115,N,12416.9074331,W,2,26,0.6,-0.322,M,-20.066,M,,*4A
$GPGGA,135808.500,4816.0250267,N,12416.9067524,W,2,27,0.6,-0.318,M,-20.066,M,,*40
$GPGGA,135809.000,4816.0249353,N,12416.9061227,W,2,27,0.6,-0.315,M,-20.066,M,,*45
$PADCP,51,20250530,065306.00,-25503.00
$GPGGA,135809.500,4816.0248418,N,12416.9055108,W,2,27,0.6,-0.343,M,-20.066,M,,*43
$GPGGA,135810.000,4816.0247885,N,12416.9049065,W,2,27,0.6,-0.356,M,-20.066,M,,*4A
$GPGGA,135810.500,4816.0247017,N,12416.9043200,W,2,27,0.6,-0.379,M,-20.066,M,,*4A
$GPGGA,135811.000,4816.0246598,N,12416.9037093,W,2,27,0.6,-0.380,M,-20.066,M,,*40
$PADCP,52,20250530,065308.00,-25504.00
$GPGGA,135811.500,4816.0245965,N,12416.9030940,W,2,27,0.6,-0.376,M,-20.066,M,,*41
$GPGGA,135812.000,4816.0245289,N,12416.9024885,W,2,27,0.6,-0.382,M,-20.066,M,,*48
$GPGGA,135812.500,4816.0244471,N,12416.9018809,W,2,27,0.6,-0.373,M,-20.066,M,,*48
$GPGGA,135813.000,4816.0243728,N,12416.9012719,W,2,27,0.6,-0.395,M,-20.066,M,,*48
$PADCP,53,20250530,065310.02,-25504.00
$GPGGA,135813.500,4816.0243230,N,12416.9006435,W,2,27,0.6,-0.400,M,-20.066,M,,*42
$GPGGA,135814.000,4816.0242331,N,12416.9000704,W,2,27,0.6,-0.426,M,-20.066,M,,*42
$GPGGA,135814.500,4816.0241757,N,12416.8994699,W,2,27,0.6,-0.431,M,-20.066,M,,*46
$GPGGA,135815.000,4816.0240765,N,12416.8989078,W,2,27,0.6,-0.432,M,-20.066,M,,*44
$PADCP,54,20250530,065312.00,-25504.00
$GPGGA,135815.500,4816.0240165,N,12416.8982793,W,2,27,0.6,-0.414,M,-20.066,M,,*4A
$GPGGA,135816.000,4816.0239177,N,12416.8977016,W,2,27,0.6,-0.405,M,-20.066,M,,*41
$GPGGA,135816.500,4816.0238213,N,12416.8970956,W,2,27,0.6,-0.398,M,-20.066,M,,*4D
$GPGGA,135817.000,4816.0237172,N,12416.8965055,W,2,27,0.6,-0.372,M,-20.066,M,,*48
$PADCP,55,20250530,065314.00,-25504.00
$GPGGA,135817.500,4816.0236130,N,12416.8958890,W,2,27,0.6,-0.368,M,-20.066,M,,*4E
$GPGGA,135818.000,4816.0235094,N,12416.8952791,W,2,27,0.6,-0.353,M,-20.066,M,,*44
$GPGGA,135818.500,4816.0233720,N,12416.8946775,W,2,27,0.6,-0.350,M,-20.066,M,,*43
$GPGGA,135819.000,4816.0232618,N,12416.8940713,W,2,27,0.6,-0.344,M,-20.066,M,,*4F
$PADCP,56,20250530,065316.00,-25504.00
$GPGGA,135819.500,4816.0231178,N,12416.8934766,W,2,27,0.6,-0.342,M,-20.066,M,,*4F
$GPGGA,135820.000,4816.0229705,N,12416.8928738,W,2,27,0.6,-0.357,M,-20.066,M,,*47
$GPGGA,135820.500,4816.0228221,N,12416.8922602,W,2,27,0.6,-0.351,M,-20.066,M,,*44
$GPGGA,135821.000,4816.0226849,N,12416.8916625,W,2,27,0.6,-0.353,M,-20.066,M,,*4A
$PADCP,57,20250530,065318.00,-25504.00
$GPGGA,135821.500,4816.0225756,N,12416.8910748,W,2,27,0.6,-0.357,M,-20.066,M,,*45
$GPGGA,135822.000,4816.0224291,N,12416.8904936,W,2,27,0.6,-0.372,M,-20.066,M,,*49
$GPGGA,135822.500,4816.0223063,N,12416.8898929,W,2,27,0.6,-0.397,M,-20.066,M,,*45
$GPGGA,135823.000,4816.0221701,N,12416.8893049,W,2,27,0.6,-0.399,M,-20.066,M,,*4A
$PADCP,58,20250530,065320.00,-25504.00
$GPGGA,135823.500,4816.0220468,N,12416.8887304,W,2,27,0.6,-0.404,M,-20.066,M,,*4E
$GPGGA,135824.000,4816.0219382,N,12416.8881319,W,2,27,0.6,-0.389,M,-20.066,M,,*4D
$GPGGA,135824.500,4816.0217906,N,12416.8875879,W,2,27,0.6,-0.391,M,-20.066,M,,*4F
$GPGGA,135825.000,4816.0216662,N,12416.8870029,W,2,27,0.6,-0.386,M,-20.066,M,,*49
$PADCP,59,20250530,065322.00,-25504.00
$GPGGA,135825.500,4816.0215233,N,12416.8864341,W,2,27,0.6,-0.377,M,-20.066,M,,*49
$GPGGA,135826.000,4816.0213856,N,12416.8858213,W,2,27,0.6,-0.362,M,-20.066,M,,*4D
$GPGGA,135826.500,4816.0212366,N,12416.8852336,W,2,27,0.6,-0.342,M,-20.066,M,,*4F
$GPGGA,135827.000,4816.0210781,N,12416.8846256,W,2,27,0.6,-0.336,M,-20.066,M,,*45
$PADCP,60,20250530,065324.00,-25504.00
$GPGGA,135827.500,4816.0209393,N,12416.8840095,W,2,26,0.6,-0.322,M,-20.066,M,,*40
$GPGGA,135828.000,4816.0207837,N,12416.8833956,W,2,26,0.6,-0.319,M,-20.066,M,,*4B
$GPGGA,135828.500,4816.0206620,N,12416.8827697,W,2,26,0.6,-0.320,M,-20.066,M,,*4A
$GPGGA,135829.000,4816.0204961,N,12416.8821719,W,2,26,0.6,-0.341,M,-20.066,M,,*40
$PADCP,61,20250530,065326.00,-25504.00
$GPGGA,135829.500,4816.0203462,N,12416.8815743,W,2,26,0.6,-0.363,M,-20.066,M,,*44
$GPGGA,135830.000,4816.0202237,N,12416.8809522,W,2,26,0.6,-0.372,M,-20.066,M,,*46
$GPGGA,135830.500,4816.0200955,N,12416.8803753,W,2,26,0.6,-0.382,M,-20.066,M,,*4F
$GPGGA,135831.000,4816.0199708,N,12416.8797765,W,2,26,0.6,-0.390,M,-20.066,M,,*4A
$PADCP,62,20250530,065328.02,-25504.00
$GPGGA,135831.500,4816.0198297,N,12416.8792051,W,2,26,0.6,-0.391,M,-20.066,M,,*49
$GPGGA,135832.000,4816.0197161,N,12416.8785955,W,2,26,0.6,-0.380,M,-20.066,M,,*41
$GPGGA,135832.500,4816.0195818,N,12416.8780227,W,2,26,0.6,-0.367,M,-20.066,M,,*43
$GPGGA,135833.000,4816.0194310,N,12416.8774352,W,2,26,0.6,-0.362,M,-20.066,M,,*48
$PADCP,63,20250530,065330.00,-25504.00
$GPGGA,135833.500,4816.0193143,N,12416.8768285,W,2,26,0.6,-0.339,M,-20.066,M,,*46
$GPGGA,135834.000,4816.0191887,N,12416.8762189,W,2,26,0.6,-0.328,M,-20.066,M,,*42
$GPGGA,135834.500,4816.0190640,N,12416.8755957,W,2,26,0.6,-0.323,M,-20.066,M,,*47
$GPGGA,135835.000,4816.0188968,N,12416.8749703,W,2,26,0.6,-0.319,M,-20.066,M,,*44
$PADCP,64,20250530,065332.00,-25504.00
$GPGGA,135835.500,4816.0187753,N,12416.8743200,W,2,26,0.6,-0.308,M,-20.066,M,,*44
$GPGGA,135836.000,4816.0186563,N,12416.8736707,W,2,26,0.6,-0.292,M,-20.066,M,,*40
$GPGGA,135836.500,4816.0185181,N,12416.8730428,W,2,26,0.6,-0.307,M,-20.066,M,,*4B
$GPGGA,135837.000,4816.0183866,N,12416.8723850,W,2,26,0.6,-0.322,M,-20.066,M,,*4F
$PADCP,65,20250530,065334.00,-25504.00
$GPGGA,135837.500,4816.0182534,N,12416.8717543,W,2,26,0.6,-0.341,M,-20.066,M,,*4C
$GPGGA,135838.000,4816.0181485,N,12416.8711214,W,2,26,0.6,-0.348,M,-20.066,M,,*44
$GPGGA,135838.500,4816.0180106,N,12416.8705406,W,2,26,0.6,-0.355,M,-20.066,M,,*42
$GPGGA,135839.000,4816.0179102,N,12416.8699242,W,2,26,0.6,-0.356,M,-20.066,M,,*45
$PADCP,66,20250530,065336.00,-25504.00
$GPGGA,135839.500,4816.0178070,N,12416.8693074,W,2,26,0.6,-0.362,M,-20.066,M,,*4F
$GPGGA,135840.000,4816.0176937,N,12416.8687183,W,2,26,0.6,-0.377,M,-20.066,M,,*48
$GPGGA,135840.500,4816.0175849,N,12416.8681011,W,2,26,0.6,-0.377,M,-20.066,M,,*4A
$GPGGA,135841.000,4816.0174833,N,12416.8674785,W,2,26,0.6,-0.362,M,-20.066,M,,*46
$PADCP,67,20250530,065338.00,-25503.00
$GPGGA,135841.500,4816.0173935,N,12416.8668380,W,2,26,0.6,-0.353,M,-20.066,M,,*4D
$GPGGA,135842.000,4816.0173053,N,12416.8662132,W,2,26,0.6,-0.338,M,-20.066,M,,*4E
$GPGGA,135842.500,4816.0171736,N,12416.8655989,W,2,26,0.6,-0.352,M,-20.066,M,,*4D
$GPGGA,135843.000,4816.0171022,N,12416.8649491,W,2,26,0.6,-0.351,M,-20.066,M,,*41
$PADCP,68,20250530,065340.02,-25504.00
$GPGGA,135843.500,4816.0169940,N,12416.8643153,W,2,26,0.6,-0.343,M,-20.066,M,,*42
$GPGGA,135844.000,4816.0169073,N,12416.8636895,W,2,26,0.6,-0.336,M,-20.066,M,,*4A
$GPGGA,135844.500,4816.0167967,N,12416.8630435,W,2,26,0.6,-0.317,M,-20.066,M,,*4E
$GPGGA,135845.000,4816.0166918,N,12416.8624188,W,2,26,0.6,-0.298,M,-20.066,M,,*43
$PADCP,69,20250530,065342.00,-25504.00
$GPGGA,135845.500,4816.0166093,N,12416.8617664,W,2,26,0.6,-0.281,M,-20.066,M,,*41
$GPGGA,135846.000,4816.0164975,N,12416.8611360,W,2,26,0.6,-0.276,M,-20.066,M,,*4B
$GPGGA,135846.500,4816.0163935,N,12416.8604775,W,2,26,0.6,-0.285,M,-20.066,M,,*45
$GPGGA,135847.000,4816.0163136,N,12416.8598387,W,2,26,0.6,-0.267,M,-20.066,M,,*49
$PADCP,70,20250530,065344.02,-25504.00
$GPGGA,135847.500,4816.0162296,N,12416.8591899,W,2,26,0.6,-0.262,M,-20.065,M,,*4F
$GPGGA,135848.000,4816.0161797,N,12416.8585229,W,2,27,0.6,-0.275,M,-20.065,M,,*41
$GPGGA,135848.500,4816.0160749,N,12416.8578799,W,2,27,0.6,-0.303,M,-20.065,M,,*4A
$GPGGA,135849.000,4816.0159935,N,12416.8572501,W,2,27,0.6,-0.333,M,-20.065,M,,*4B
$PADCP,71,20250530,065346.02,-25504.00
$GPGGA,135849.500,4816.0159327,N,12416.8566248,W,2,27,0.6,-0.332,M,-20.065,M,,*49
$GPGGA,135850.000,4816.0158951,N,12416.8560194,W,2,27,0.6,-0.338,M,-20.065,M,,*40
$GPGGA,135850.500,4816.0158617,N,12416.8554153,W,2,27,0.6,-0.352,M,-20.065,M,,*48
$GPGGA,135851.000,4816.0157818,N,12416.8548476,W,2,27,0.6,-0.379,M,-20.065,M,,*44
$PADCP,72,20250530,065348.00,-25504.00
$GPGGA,135851.500,4816.0157416,N,12416.8542334,W,2,27,0.6,-0.372,M,-20.065,M,,*43
$GPGGA,135852.000,4816.0156941,N,12416.8536394,W,2,27,0.6,-0.335,M,-20.065,M,,*41
$GPGGA,135852.500,4816.0156887,N,12416.8529737,W,2,27,0.6,-0.300,M,-20.065,M,,*4A
$GPGGA,135853.000,4816.0156179,N,12416.8523163,W,2,27,0.6,-0.278,M,-20.065,M,,*45
$PADCP,73,20250530,065350.00,-25504.00
$GPGGA,135853.500,4816.0155292,N,12416.8516476,W,2,27,0.6,-0.280,M,-20.065,M,,*45
$GPGGA,135854.000,4816.0154715,N,12416.8509663,W,2,27,0.6,-0.266,M,-20.065,M,,*4C
$GPGGA,135854.500,4816.0153950,N,12416.8503013,W,2,27,0.6,-0.271,M,-20.065,M,,*4C
$GPGGA,135855.000,4816.0153386,N,12416.8496388,W,2,27,0.6,-0.275,M,-20.065,M,,*41
$PADCP,74,20250530,065352.02,-25504.00
$GPGGA,135855.500,4816.0152500,N,12416.8490300,W,2,27,0.6,-0.292,M,-20.065,M,,*42
$GPGGA,135856.000,4816.0151942,N,12416.8484235,W,2,27,0.6,-0.319,M,-20.065,M,,*4D
$GPGGA,135856.500,4816.0151372,N,12416.8478663,W,2,27,0.6,-0.320,M,-20.065,M,,*4F
$GPGGA,135857.000,4816.0150677,N,12416.8472869,W,2,27,0.6,-0.335,M,-20.065,M,,*40
$PADCP,75,20250530,065354.00,-25504.00
$GPGGA,135857.500,4816.0150100,N,12416.8467004,W,2,27,0.6,-0.323,M,-20.065,M,,*42
$GPGGA,135858.000,4816.0149405,N,12416.8461013,W,2,27,0.6,-0.316,M,-20.065,M,,*46
$GPGGA,135858.500,4816.0148688,N,12416.8454886,W,2,27,0.6,-0.290,M,-20.065,M,,*48
$GPGGA,135859.000,4816.0147507,N,12416.8448691,W,2,27,0.6,-0.271,M,-20.065,M,,*4D
$PADCP,76,20250530,065356.00,-25504.00
$GPGGA,135859.500,4816.0146533,N,12416.8442386,W,2,27,0.6,-0.250,M,-20.065,M,,*44
$GPGGA,135900.000,4816.0145289,N,12416.8436183,W,2,27,0.6,-0.233,M,-20.065,M,,*48
$GPGGA,135900.500,4816.0144239,N,12416.8429976,W,2,27,0.6,-0.237,M,-20.065,M,,*4F
$GPGGA,135901.000,4816.0142989,N,12416.8423768,W,2,27,0.6,-0.253,M,-20.065,M,,*44
$PADCP,77,20250530,065358.00,-25504.00
$GPGGA,135901.500,4816.0141839,N,12416.8417639,W,2,27,0.6,-0.279,M,-20.065,M,,*42
$GPGGA,135902.000,4816.0141041,N,12416.8411444,W,2,27,0.6,-0.290,M,-20.065,M,,*4A
$GPGGA,135902.500,4816.0139914,N,12416.8405743,W,2,27,0.6,-0.328,M,-20.065,M,,*4A
$GPGGA,135903.000,4816.0138988,N,12416.8399702,W,2,27,0.6,-0.358,M,-20.065,M,,*4A
$PADCP,78,20250530,065400.00,-25504.00
$GPGGA,135903.500,4816.0137846,N,12416.8394319,W,2,27,0.6,-0.369,M,-20.065,M,,*42
$GPGGA,135904.000,4816.0136980,N,12416.8388601,W,2,27,0.6,-0.369,M,-20.065,M,,*4B
$GPGGA,135904.500,4816.0135842,N,12416.8383132,W,2,27,0.6,-0.356,M,-20.065,M,,*42
$GPGGA,135905.000,4816.0134545,N,12416.8377473,W,2,27,0.6,-0.344,M,-20.065,M,,*45
$PADCP,79,20250530,065402.00,-25504.00
$GPGGA,135905.500,4816.0133473,N,12416.8371629,W,2,27,0.6,-0.314,M,-20.065,M,,*4D
$GPGGA,135906.000,4816.0132001,N,12416.8365654,W,2,27,0.6,-0.300,M,-20.065,M,,*41
$GPGGA,135906.500,4816.0130655,N,12416.8359403,W,2,27,0.6,-0.279,M,-20.065,M,,*41
$GPGGA,135907.000,4816.0129080,N,12416.8352989,W,2,27,0.6,-0.259,M,-20.065,M,,*45
$PADCP,80,20250530,065404.00,-25504.00
$GPGGA,135907.500,4816.0127676,N,12416.8346512,W,2,27,0.6,-0.258,M,-20.065,M,,*4B
$GPGGA,135908.000,4816.0126245,N,12416.8340250,W,2,27,0.6,-0.250,M,-20.065,M,,*4B
$GPGGA,135908.500,4816.0124802,N,12416.8334333,W,2,27,0.6,-0.272,M,-20.065,M,,*42
$GPGGA,135909.000,4816.0123600,N,12416.8328368,W,2,27,0.6,-0.287,M,-20.065,M,,*44
$PADCP,81,20250530,065406.00,-25504.00
$GPGGA,135909.500,4816.0122172,N,12416.8323078,W,2,27,0.6,-0.299,M,-20.065,M,,*44
$GPGGA,135910.000,4816.0120956,N,12416.8317404,W,2,27,0.6,-0.310,M,-20.065,M,,*4D
$GPGGA,135910.500,4816.0119586,N,12416.8311944,W,2,27,0.6,-0.292,M,-20.065,M,,*47
$GPGGA,135911.000,4816.0118142,N,12416.8306322,W,2,27,0.6,-0.268,M,-20.065,M,,*47
$PADCP,82,20250530,065408.00,-25504.00
$GPGGA,135911.500,4816.0116791,N,12416.8300286,W,2,27,0.6,-0.241,M,-20.065,M,,*46
$GPGGA,135912.000,4816.0114965,N,12416.8294575,W,2,27,0.6,-0.251,M,-20.065,M,,*41
$GPGGA,135912.500,4816.0113474,N,12416.8288440,W,2,27,0.6,-0.247,M,-20.065,M,,*43
$GPGGA,135913.000,4816.0111917,N,12416.8282813,W,2,27,0.6,-0.259,M,-20.065,M,,*42
$PADCP,83,20250530,065410.00,-25504.00
$GPGGA,135913.500,4816.0110302,N,12416.8277078,W,2,27,0.6,-0.287,M,-20.065,M,,*44
$GPGGA,135914.000,4816.0108675,N,12416.8271629,W,2,27,0.6,-0.301,M,-20.065,M,,*41
$GPGGA,135914.500,4816.0107033,N,12416.8266140,W,2,27,0.6,-0.320,M,-20.065,M,,*42
$GPGGA,135915.000,4816.0105569,N,12416.8260739,W,2,27,0.6,-0.318,M,-20.065,M,,*4B
$PADCP,84,20250530,065412.00,-25504.00
$GPGGA,135915.500,4816.0103930,N,12416.8255410,W,2,27,0.6,-0.322,M,-20.065,M,,*4F
$GPGGA,135916.000,4816.0102546,N,12416.8249861,W,2,27,0.6,-0.315,M,-20.065,M,,*46
$GPGGA,135916.500,4816.0100917,N,12416.8244317,W,2,27,0.6,-0.300,M,-20.065,M,,*4A
$GPGGA,135917.000,4816.0099347,N,12416.8238689,W,2,27,0.6,-0.294,M,-20.065,M,,*45
$PADCP,85,20250530,065414.00,-25504.00
$GPGGA,135917.500,4816.0097758,N,12416.8232874,W,2,27,0.6,-0.277,M,-20.065,M,,*4F
$GPGGA,135918.000,4816.0095999,N,12416.8227271,W,2,27,0.6,-0.283,M,-20.065,M,,*44
$GPGGA,135918.500,4816.0094380,N,12416.8221390,W,2,27,0.6,-0.285,M,-20.065,M,,*4C
$GPGGA,135919.000,4816.0092631,N,12416.8215957,W,2,27,0.6,-0.289,M,-20.065,M,,*4B
$PADCP,86,20250530,065416.02,-25504.00
$GPGGA,135919.500,4816.0091025,N,12416.8210291,W,2,27,0.6,-0.293,M,-20.065,M,,*41
$GPGGA,135920.000,4816.0089308,N,12416.8204908,W,2,27,0.6,-0.298,M,-20.065,M,,*4E
$GPGGA,135920.500,4816.0087497,N,12416.8199507,W,2,27,0.6,-0.317,M,-20.065,M,,*46
$GPGGA,135921.000,4816.0085949,N,12416.8194120,W,2,27,0.6,-0.313,M,-20.065,M,,*46
$PADCP,87,20250530,065418.00,-25504.00
$GPGGA,135921.500,4816.0084154,N,12416.8188875,W,2,27,0.6,-0.321,M,-20.065,M,,*43
$GPGGA,135922.000,4816.0082576,N,12416.8183391,W,2,27,0.6,-0.322,M,-20.065,M,,*4E
$GPGGA,135922.500,4816.0080800,N,12416.8178005,W,2,27,0.6,-0.315,M,-20.065,M,,*4B
$GPGGA,135923.000,4816.0079329,N,12416.8172556,W,2,27,0.6,-0.296,M,-20.065,M,,*4A
$PADCP,88,20250530,065420.00,-25504.00
$GPGGA,135923.500,4816.0077604,N,12416.8167147,W,2,27,0.6,-0.278,M,-20.065,M,,*4B
$GPGGA,135924.000,4816.0075816,N,12416.8161873,W,2,27,0.6,-0.272,M,-20.065,M,,*44
$GPGGA,135924.500,4816.0074139,N,12416.8156218,W,2,27,0.6,-0.250,M,-20.065,M,,*47
$GPGGA,135925.000,4816.0072333,N,12416.8150762,W,2,27,0.6,-0.253,M,-20.065,M,,*40
$PADCP,89,20250530,065422.02,-25504.00
$GPGGA,135925.500,4816.0070643,N,12416.8144836,W,2,27,0.6,-0.253,M,-20.065,M,,*4E
$GPGGA,135926.000,4816.0068799,N,12416.8139151,W,2,27,0.6,-0.261,M,-20.065,M,,*44
$GPGGA,135926.500,4816.0067169,N,12416.8133098,W,2,27,0.6,-0.272,M,-20.065,M,,*4B
$GPGGA,135927.000,4816.0065448,N,12416.8127524,W,2,27,0.6,-0.268,M,-20.065,M,,*47
$PADCP,90,20250530,065424.02,-25504.00
$GPGGA,135927.500,4816.0063564,N,12416.8122095,W,2,27,0.6,-0.289,M,-20.065,M,,*4E
$GPGGA,135928.000,4816.0061925,N,12416.8116576,W,2,27,0.6,-0.279,M,-20.065,M,,*4F
$GPGGA,135928.500,4816.0060134,N,12416.8111657,W,2,27,0.6,-0.284,M,-20.065,M,,*46
$GPGGA,135929.000,4816.0058664,N,12416.8106226,W,2,27,0.6,-0.285,M,-20.065,M,,*4E
$PADCP,91,20250530,065426.00,-25504.00
$GPGGA,135929.500,4816.0056908,N,12416.8101178,W,2,27,0.6,-0.300,M,-20.065,M,,*43
$GPGGA,135930.000,4816.0055261,N,12416.8095690,W,2,27,0.6,-0.316,M,-20.065,M,,*43
$GPGGA,135930.500,4816.0053353,N,12416.8090641,W,2,27,0.6,-0.325,M,-20.065,M,,*49
$GPGGA,135931.000,4816.0051723,N,12416.8085193,W,2,27,0.6,-0.328,M,-20.065,M,,*4D
$PADCP,92,20250530,065428.00,-25504.00
$GPGGA,135931.500,4816.0050158,N,12416.8079825,W,2,27,0.6,-0.313,M,-20.065,M,,*4C
$GPGGA,135932.000,4816.0048440,N,12416.8074649,W,2,27,0.6,-0.314,M,-20.064,M,,*40
$GPGGA,135932.500,4816.0046878,N,12416.8069537,W,2,27,0.6,-0.306,M,-20.064,M,,*49
$GPGGA,135933.000,4816.0045142,N,12416.8064426,W,2,27,0.6,-0.311,M,-20.065,M,,*45
$PADCP,93,20250530,065430.00,-25504.00
$GPGGA,135933.500,4816.0043607,N,12416.8059045,W,2,27,0.6,-0.301,M,-20.064,M,,*4F
$GPGGA,135934.000,4816.0041838,N,12416.8053750,W,2,27,0.6,-0.273,M,-20.064,M,,*40
$GPGGA,135934.500,4816.0040431,N,12416.8047929,W,2,27,0.6,-0.254,M,-20.064,M,,*41
$GPGGA,135935.000,4816.0038832,N,12416.8042102,W,2,27,0.6,-0.235,M,-20.064,M,,*46
$PADCP,94,20250530,065432.00,-25504.00
$GPGGA,135935.500,4816.0037054,N,12416.8036329,W,2,27,0.6,-0.247,M,-20.064,M,,*49
$GPGGA,135936.000,4816.0035625,N,12416.8029985,W,2,27,0.6,-0.249,M,-20.064,M,,*41
$GPGGA,135936.500,4816.0034066,N,12416.8024150,W,2,27,0.6,-0.271,M,-20.064,M,,*42
$GPGGA,135937.000,4816.0032624,N,12416.8018255,W,2,27,0.6,-0.303,M,-20.064,M,,*4D
$PADCP,95,20250530,065434.02,-25504.00
$GPGGA,135937.500,4816.0031130,N,12416.8012703,W,2,27,0.6,-0.327,M,-20.064,M,,*43
$GPGGA,135938.000,4816.0029818,N,12416.8007359,W,2,27,0.6,-0.335,M,-20.064,M,,*4F
$GPGGA,135938.500,4816.0028672,N,12416.8002261,W,2,27,0.6,-0.332,M,-20.064,M,,*41
$GPGGA,135939.000,4816.0027495,N,12416.7997044,W,2,27,0.6,-0.331,M,-20.064,M,,*4D
$PADCP,96,20250530,065436.02,-25503.00
$GPGGA,135939.500,4816.0026213,N,12416.7992042,W,2,27,0.6,-0.333,M,-20.064,M,,*40
$GPGGA,135940.000,4816.0024990,N,12416.7986606,W,2,27,0.6,-0.309,M,-20.064,M,,*43
$GPGGA,135940.500,4816.0023660,N,12416.7981162,W,2,27,0.6,-0.288,M,-20.064,M,,*4B
$GPGGA,135941.000,4816.0022609,N,12416.7975025,W,2,27,0.6,-0.270,M,-20.064,M,,*4F
$PADCP,97,20250530,065438.00,-25504.00
$GPGGA,135941.500,4816.0021228,N,12416.7969022,W,2,27,0.6,-0.263,M,-20.064,M,,*46
$GPGGA,135942.000,4816.0019794,N,12416.7962877,W,2,27,0.6,-0.275,M,-20.064,M,,*4D
$GPGGA,135942.500,4816.0018420,N,12416.7956800,W,2,27,0.6,-0.281,M,-20.064,M,,*49
$GPGGA,135943.000,4816.0016938,N,12416.7950836,W,2,27,0.6,-0.287,M,-20.064,M,,*42
$PADCP,98,20250530,065440.00,-25504.00
$GPGGA,135943.500,4816.0015907,N,12416.7944984,W,2,27,0.6,-0.292,M,-20.064,M,,*41
$GPGGA,135944.000,4816.0014716,N,12416.7939427,W,2,27,0.6,-0.306,M,-20.064,M,,*4E
$GPGGA,135944.500,4816.0013441,N,12416.7934097,W,2,27,0.6,-0.331,M,-20.064,M,,*4B
$GPGGA,135945.000,4816.0012448,N,12416.7928684,W,2,27,0.6,-0.333,M,-20.064,M,,*4C
$PADCP,99,20250530,065442.00,-25504.00
$GPGGA,135945.500,4816.0011337,N,12416.7923246,W,2,27,0.6,-0.329,M,-20.064,M,,*4F
$GPGGA,135946.000,4816.0010454,N,12416.7917614,W,2,27,0.6,-0.326,M,-20.064,M,,*41
$GPGGA,135946.500,4816.0009292,N,12416.7911966,W,2,27,0.6,-0.318,M,-20.064,M,,*41
$GPGGA,135947.000,4816.0008098,N,12416.7906230,W,2,27,0.6,-0.319,M,-20.064,M,,*43
$PADCP,100,20250530,065444.00,-25504.00
$GPGGA,135947.500,4816.0006970,N,12416.7900274,W,2,27,0.6,-0.301,M,-20.064,M,,*48
$GPGGA,135948.000,4816.0005817,N,12416.7894507,W,2,27,0.6,-0.287,M,-20.064,M,,*41
$GPGGA,135948.500,4816.0004809,N,12416.7888300,W,2,27,0.6,-0.275,M,-20.064,M,,*4B
$GPGGA,135949.000,4816.0003448,N,12416.7882652,W,2,27,0.6,-0.279,M,-20.064,M,,*45
$PADCP,101,20250530,065446.02,-25504.00
$GPGGA,135949.500,4816.0002255,N,12416.7876616,W,2,27,0.6,-0.283,M,-20.064,M,,*45
$GPGGA,135950.000,4816.0001019,N,12416.7870808,W,2,27,0.6,-0.283,M,-20.064,M,,*46
$GPGGA,135950.500,4815.9999857,N,12416.7864823,W,2,27,0.6,-0.291,M,-20.064,M,,*4C
$GPGGA,135951.000,4815.9998830,N,12416.7858770,W,2,27,0.6,-0.294,M,-20.064,M,,*4B
$PADCP,102,20250530,065448.02,-25504.00
$GPGGA,135951.500,4815.9997469,N,12416.7852850,W,2,27,0.6,-0.319,M,-20.064,M,,*42
$GPGGA,135952.000,4815.9996333,N,12416.7846895,W,2,27,0.6,-0.329,M,-20.064,M,,*42
$GPGGA,135952.500,4815.9995061,N,12416.7841169,W,2,27,0.6,-0.324,M,-20.064,M,,*40
$GPGGA,135953.000,4815.9994064,N,12416.7835392,W,2,27,0.6,-0.319,M,-20.064,M,,*4B
$PADCP,103,20250530,065450.00,-25504.00
$GPGGA,135953.500,4815.9993096,N,12416.7829536,W,2,27,0.6,-0.314,M,-20.064,M,,*4C
$GPGGA,135954.000,4815.9991962,N,12416.7824024,W,2,27,0.6,-0.339,M,-20.064,M,,*4A
$GPGGA,135954.500,4815.9991042,N,12416.7818322,W,2,27,0.6,-0.346,M,-20.064,M,,*46
$GPGGA,135955.000,4815.9989886,N,12416.7812791,W,2,27,0.6,-0.344,M,-20.064,M,,*4F
$PADCP,104,20250530,065452.02,-25504.00
$GPGGA,135955.500,4815.9989057,N,12416.7806541,W,2,27,0.6,-0.316,M,-20.064,M,,*43
$GPGGA,135956.000,4815.9987932,N,12416.7800518,W,2,27,0.6,-0.287,M,-20.064,M,,*42
$GPGGA,135956.500,4815.9986709,N,12416.7794461,W,2,27,0.6,-0.273,M,-20.064,M,,*46
$GPGGA,135957.000,4815.9985440,N,12416.7788513,W,2,27,0.6,-0.259,M,-20.064,M,,*4E
$PADCP,105,20250530,065454.00,-25504.00
$GPGGA,135957.500,4815.9984220,N,12416.7782099,W,2,27,0.6,-0.263,M,-20.064,M,,*4E
$GPGGA,135958.000,4815.9983304,N,12416.7775772,W,2,27,0.6,-0.271,M,-20.064,M,,*4D
$GPGGA,135958.500,4815.9981875,N,12416.7770008,W,2,27,0.6,-0.311,M,-20.064,M,,*4F
$GPGGA,135959.000,4815.9980677,N,12416.7764199,W,2,27,0.6,-0.350,M,-20.064,M,,*4F
$PADCP,106,20250530,065456.00,-25504.00
$GPGGA,135959.500,4815.9979638,N,12416.7758297,W,2,27,0.6,-0.364,M,-20.064,M,,*42
$GPGGA,140000.000,4815.9978795,N,12416.7752582,W,2,27,0.6,-0.378,M,-20.064,M,,*43
$GPGGA,140000.500,4815.9978033,N,12416.7747095,W,2,27,0.6,-0.380,M,-20.064,M,,*4D
$GPGGA,140001.000,4815.9976861,N,12416.7741746,W,2,27,0.6,-0.395,M,-20.064,M,,*43
$PADCP,107,20250530,065458.00,-25504.00
$GPGGA,140001.500,4815.9976085,N,12416.7735969,W,2,27,0.6,-0.377,M,-20.064,M,,*48
$GPGGA,140002.000,4815.9974818,N,12416.7730249,W,2,27,0.6,-0.361,M,-20.064,M,,*4B
$GPGGA,140002.500,4815.9973812,N,12416.7724379,W,2,27,0.6,-0.336,M,-20.064,M,,*46
$GPGGA,140003.000,4815.9972578,N,12416.7718361,W,2,27,0.6,-0.307,M,-20.064,M,,*46
$PADCP,108,20250530,065500.00,-25504.00
$GPGGA,140003.500,4815.9971258,N,12416.7712280,W,2,27,0.6,-0.295,M,-20.064,M,,*4B
$GPGGA,140004.000,4815.9970186,N,12416.7705905,W,2,27,0.6,-0.277,M,-20.064,M,,*44
$GPGGA,140004.500,4815.9968913,N,12416.7699972,W,2,27,0.6,-0.275,M,-20.064,M,,*4A
$GPGGA,140005.000,4815.9967907,N,12416.7693692,W,2,27,0.6,-0.273,M,-20.064,M,,*49
$PADCP,109,20250530,065502.00,-25504.00
$GPGGA,140005.500,4815.9966698,N,12416.7687778,W,2,27,0.6,-0.272,M,-20.064,M,,*45
$GPGGA,140006.000,4815.9965354,N,12416.7681872,W,2,27,0.6,-0.282,M,-20.064,M,,*49
$GPGGA,140006.500,4815.9964237,N,12416.7676006,W,2,27,0.6,-0.270,M,-20.064,M,,*47
$GPGGA,140007.000,4815.9963092,N,12416.7670116,W,2,27,0.6,-0.269,M,-20.064,M,,*47
$PADCP,110,20250530,065504.00,-25504.00
$GPGGA,140007.500,4815.9962240,N,12416.7664204,W,2,27,0.6,-0.276,M,-20.064,M,,*45
$GPGGA,140008.000,4815.9960859,N,12416.7658396,W,2,27,0.6,-0.310,M,-20.064,M,,*4B
$GPGGA,140008.500,4815.9959819,N,12416.7652303,W,2,27,0.6,-0.339,M,-20.064,M,,*4D
$GPGGA,140009.000,4815.9958879,N,12416.7646150,W,2,27,0.6,-0.349,M,-20.064,M,,*48
$PADCP,111,20250530,065506.00,-25504.00
$GPGGA,140009.500,4815.9957896,N,12416.7640234,W,2,27,0.6,-0.363,M,-20.064,M,,*4C
$GPGGA,140010.000,4815.9957079,N,12416.7634155,W,2,27,0.6,-0.368,M,-20.064,M,,*44
$GPGGA,140010.500,4815.9955894,N,12416.7628521,W,2,27,0.6,-0.382,M,-20.064,M,,*46
$GPGGA,140011.000,4815.9955159,N,12416.7622567,W,2,27,0.6,-0.377,M,-20.064,M,,*48
$PADCP,112,20250530,065508.00,-25504.00
$GPGGA,140011.500,4815.9954348,N,12416.7617027,W,2,27,0.6,-0.379,M,-20.064,M,,*47
$GPGGA,140012.000,4815.9953386,N,12416.7611370,W,2,27,0.6,-0.378,M,-20.064,M,,*42
$GPGGA,140012.500,4815.9952406,N,12416.7605601,W,2,27,0.6,-0.362,M,-20.064,M,,*44
$GPGGA,140013.000,4815.9951289,N,12416.7599575,W,2,27,0.6,-0.337,M,-20.064,M,,*44
$PADCP,113,20250530,065510.02,-25504.00
$GPGGA,140013.500,4815.9950478,N,12416.7593257,W,2,27,0.6,-0.291,M,-20.064,M,,*48
$GPGGA,140014.000,4815.9949301,N,12416.7586853,W,2,27,0.6,-0.256,M,-20.064,M,,*4A
$GPGGA,140014.500,4815.9948179,N,12416.7580343,W,2,27,0.6,-0.239,M,-20.064,M,,*46
$GPGGA,140015.000,4815.9946809,N,12416.7573903,W,2,27,0.6,-0.233,M,-20.064,M,,*4A
$PADCP,114,20250530,065512.02,-25504.00
$GPGGA,140015.500,4815.9945630,N,12416.7567528,W,2,27,0.6,-0.240,M,-20.064,M,,*4C
$GPGGA,140016.000,4815.9944749,N,12416.7561079,W,2,27,0.6,-0.246,M,-20.063,M,,*42
$GPGGA,140016.500,4815.9943465,N,12416.7555193,W,2,27,0.6,-0.286,M,-20.063,M,,*43
$GPGGA,140017.000,4815.9942593,N,12416.7549428,W,2,27,0.6,-0.310,M,-20.063,M,,*48
$PADCP,115,20250530,065514.02,-25504.00
$GPGGA,140017.500,4815.9941659,N,12416.7543673,W,2,27,0.6,-0.318,M,-20.063,M,,*45
$GPGGA,140018.000,4815.9940913,N,12416.7537806,W,2,27,0.6,-0.335,M,-20.063,M,,*4F
$GPGGA,140018.500,4815.9940287,N,12416.7531828,W,2,27,0.6,-0.327,M,-20.063,M,,*45
$GPGGA,140019.000,4815.9939280,N,12416.7526202,W,2,27,0.6,-0.335,M,-20.063,M,,*4F
$PADCP,116,20250530,065516.02,-25504.00
$GPGGA,140019.500,4815.9938610,N,12416.7520035,W,2,27,0.6,-0.323,M,-20.063,M,,*41
$GPGGA,140020.000,4815.9937707,N,12416.7514157,W,2,27,0.6,-0.320,M,-20.063,M,,*47
$GPGGA,140020.500,4815.9937157,N,12416.7507910,W,2,27,0.6,-0.317,M,-20.063,M,,*4C
$GPGGA,140021.000,4815.9936234,N,12416.7502086,W,2,27,0.6,-0.317,M,-20.063,M,,*4C
$PADCP,117,20250530,065518.00,-25504.00
$GPGGA,140021.500,4815.9935183,N,12416.7495861,W,2,27,0.6,-0.328,M,-20.063,M,,*47
$GPGGA,140022.000,4815.9934281,N,12416.7489744,W,2,27,0.6,-0.303,M,-20.063,M,,*4D
$GPGGA,140022.500,4815.9933379,N,12416.7483581,W,2,27,0.6,-0.283,M,-20.063,M,,*41
$GPGGA,140023.000,4815.9932829,N,12416.7477233,W,2,27,0.6,-0.279,M,-20.063,M,,*4A
$PADCP,118,20250530,065520.00,-25504.00
$GPGGA,140023.500,4815.9931777,N,12416.7471064,W,2,27,0.6,-0.287,M,-20.063,M,,*4F
$GPGGA,140024.000,4815.9930807,N,12416.7464968,W,2,27,0.6,-0.291,M,-20.063,M,,*42
$GPGGA,140024.500,4815.9930092,N,12416.7458622,W,2,27,0.6,-0.269,M,-20.063,M,,*4A
$GPGGA,140025.000,4815.9929223,N,12416.7452624,W,2,27,0.6,-0.268,M,-20.063,M,,*43
$PADCP,119,20250530,065522.00,-25504.00
$GPGGA,140025.500,4815.9928430,N,12416.7446387,W,2,27,0.6,-0.276,M,-20.063,M,,*45
$GPGGA,140026.000,4815.9927195,N,12416.7440614,W,2,27,0.6,-0.291,M,-20.063,M,,*46
$GPGGA,140026.500,4815.9926559,N,12416.7434347,W,2,27,0.6,-0.295,M,-20.063,M,,*42
$GPGGA,140027.000,4815.9925654,N,12416.7428534,W,2,27,0.6,-0.292,M,-20.063,M,,*43
$PADCP,120,20250530,065524.00,-25504.00
$GPGGA,140027.500,4815.9924596,N,12416.7422638,W,2,27,0.6,-0.303,M,-20.063,M,,*46
$GPGGA,140028.000,4815.9923675,N,12416.7416795,W,2,27,0.6,-0.296,M,-20.063,M,,*49
$GPGGA,140028.500,4815.9922449,N,12416.7411015,W,2,27,0.6,-0.303,M,-20.063,M,,*45
$GPGGA,140029.000,4815.9921692,N,12416.7405051,W,2,27,0.6,-0.293,M,-20.063,M,,*4B
$PADCP,121,20250530,065526.00,-25504.00
$GPGGA,140029.500,4815.9920688,N,12416.7399234,W,2,27,0.6,-0.299,M,-20.063,M,,*4D
$GPGGA,140030.000,4815.9919741,N,12416.7393404,W,2,27,0.6,-0.313,M,-20.063,M,,*42
$GPGGA,140030.500,4815.9918826,N,12416.7387549,W,2,27,0.6,-0.310,M,-20.063,M,,*46
$GPGGA,140031.000,4815.9917873,N,12416.7381711,W,2,27,0.6,-0.312,M,-20.063,M,,*46
$PADCP,122,20250530,065528.00,-25504.00
$GPGGA,140031.500,4815.9916920,N,12416.7375603,W,2,27,0.6,-0.294,M,-20.063,M,,*43
$GPGGA,140032.000,4815.9915597,N,12416.7369634,W,2,27,0.6,-0.283,M,-20.063,M,,*49
$GPGGA,140032.500,4815.9914697,N,12416.7363283,W,2,27,0.6,-0.253,M,-20.063,M,,*41
$GPGGA,140033.000,4815.9913404,N,12416.7357109,W,2,27,0.6,-0.240,M,-20.063,M,,*4E
$PADCP,123,20250530,065530.00,-25504.00
$GPGGA,140033.500,4815.9912217,N,12416.7350954,W,2,27,0.6,-0.246,M,-20.063,M,,*4F
$GPGGA,140034.000,4815.9910822,N,12416.7344979,W,2,27,0.6,-0.251,M,-20.063,M,,*4F
$GPGGA,140034.500,4815.9909458,N,12416.7339044,W,2,27,0.6,-0.269,M,-20.063,M,,*45
$GPGGA,140035.000,4815.9908311,N,12416.7332821,W,2,27,0.6,-0.261,M,-20.063,M,,*42
$PADCP,124,20250530,065532.00,-25504.00
$GPGGA,140035.500,4815.9907084,N,12416.7326932,W,2,27,0.6,-0.262,M,-20.063,M,,*42
$GPGGA,140036.000,4815.9905941,N,12416.7320942,W,2,27,0.6,-0.264,M,-20.063,M,,*41
$GPGGA,140036.500,4815.9904529,N,12416.7315410,W,2,27,0.6,-0.271,M,-20.063,M,,*4F
$GPGGA,140037.000,4815.9903526,N,12416.7309480,W,2,27,0.6,-0.268,M,-20.063,M,,*4F
$PADCP,125,20250530,065534.00,-25504.00
$GPGGA,140037.500,4815.9902128,N,12416.7303978,W,2,27,0.6,-0.268,M,-20.063,M,,*41
$GPGGA,140038.000,4815.9900914,N,12416.7297989,W,2,27,0.6,-0.279,M,-20.063,M,,*4C
$GPGGA,140038.500,4815.9899740,N,12416.7292102,W,2,27,0.6,-0.272,M,-20.063,M,,*42
$GPGGA,140039.000,4815.9898327,N,12416.7286338,W,2,27,0.6,-0.287,M,-20.063,M,,*46
$PADCP,126,20250530,065536.00,-25504.00
$GPGGA,140039.500,4815.9896916,N,12416.7280557,W,2,27,0.6,-0.280,M,-20.063,M,,*4B
$GPGGA,140040.000,4815.9895338,N,12416.7274606,W,2,27,0.6,-0.278,M,-20.063,M,,*4E
$GPGGA,140040.500,4815.9894074,N,12416.7268809,W,2,27,0.6,-0.256,M,-20.063,M,,*41
$GPGGA,140041.000,4815.9892533,N,12416.7263403,W,2,27,0.6,-0.259,M,-20.063,M,,*47
$PADCP,127,20250530,065538.02,-25504.00
$GPGGA,140041.500,4815.9891245,N,12416.7257718,W,2,27,0.6,-0.271,M,-20.063,M,,*43
$GPGGA,140042.000,4815.9889787,N,12416.7252218,W,2,27,0.6,-0.274,M,-20.063,M,,*42
$GPGGA,140042.500,4815.9888426,N,12416.7246620,W,2,27,0.6,-0.274,M,-20.063,M,,*44
$GPGGA,140043.000,4815.9886792,N,12416.7241004,W,2,27,0.6,-0.255,M,-20.063,M,,*46
$PADCP,128,20250530,065540.02,-25504.00
$GPGGA,140043.500,4815.9885203,N,12416.7235364,W,2,27,0.6,-0.248,M,-20.063,M,,*47
$GPGGA,140044.000,4815.9883631,N,12416.7229347,W,2,27,0.6,-0.225,M,-20.063,M,,*41
$GPGGA,140044.500,4815.9881702,N,12416.7223899,W,2,27,0.6,-0.225,M,-20.063,M,,*45
$GPGGA,140045.000,4815.9880199,N,12416.7217823,W,2,27,0.6,-0.208,M,-20.063,M,,*4D
$PADCP,129,20250530,065542.02,-25504.00
$GPGGA,140045.500,4815.9878538,N,12416.7212377,W,2,27,0.6,-0.217,M,-20.063,M,,*41
$GPGGA,140046.000,4815.9876920,N,12416.7206836,W,2,27,0.6,-0.247,M,-20.063,M,,*42
$GPGGA,140046.500,4815.9875207,N,12416.7201815,W,2,27,0.6,-0.254,M,-20.063,M,,*4E
$GPGGA,140047.000,4815.9873561,N,12416.7196468,W,2,27,0.6,-0.258,M,-20.063,M,,*4C
$PADCP,130,20250530,065544.02,-25504.00
$GPGGA,140047.500,4815.9871944,N,12416.7191107,W,2,27,0.6,-0.237,M,-20.063,M,,*42
$GPGGA,140048.000,4815.9870137,N,12416.7185849,W,2,27,0.6,-0.218,M,-20.063,M,,*4E
$GPGGA,140048.500,4815.9868541,N,12416.7180069,W,2,27,0.6,-0.190,M,-20.063,M,,*4B
$GPGGA,140049.000,4815.9866607,N,12416.7174679,W,2,27,0.6,-0.180,M,-20.063,M,,*4D
$PADCP,131,20250530,065546.00,-25504.00
$GPGGA,140049.500,4815.9864855,N,12416.7168651,W,2,27,0.6,-0.177,M,-20.063,M,,*4C
$GPGGA,140050.000,4815.9862948,N,12416.7163140,W,2,27,0.6,-0.174,M,-20.063,M,,*45
$GPGGA,140050.500,4815.9861025,N,12416.7157457,W,2,27,0.6,-0.193,M,-20.063,M,,*4C
$GPGGA,140051.000,4815.9859108,N,12416.7152052,W,2,27,0.6,-0.192,M,-20.063,M,,*48
$PADCP,132,20250530,065548.02,-25504.00
$GPGGA,140051.500,4815.9857175,N,12416.7146754,W,2,27,0.6,-0.207,M,-20.063,M,,*42
$GPGGA,140052.000,4815.9855544,N,12416.7141372,W,2,27,0.6,-0.205,M,-20.063,M,,*45
$GPGGA,140052.500,4815.9853449,N,12416.7136573,W,2,27,0.6,-0.226,M,-20.063,M,,*4C
$GPGGA,140053.000,4815.9851549,N,12416.7131473,W,2,27,0.6,-0.238,M,-20.063,M,,*42
$PADCP,133,20250530,065550.00,-25504.00
$GPGGA,140053.500,4815.9849520,N,12416.7126374,W,2,27,0.6,-0.241,M,-20.063,M,,*49
$GPGGA,140054.000,4815.9847707,N,12416.7120984,W,2,27,0.6,-0.233,M,-20.063,M,,*44
$GPGGA,140054.500,4815.9845702,N,12416.7115699,W,2,27,0.6,-0.225,M,-20.063,M,,*44
$GPGGA,140055.000,4815.9843604,N,12416.7110400,W,2,27,0.6,-0.234,M,-20.063,M,,*46
$PADCP,134,20250530,065552.00,-25504.00
$GPGGA,140055.500,4815.9841683,N,12416.7104879,W,2,27,0.6,-0.216,M,-20.063,M,,*49
$GPGGA,140056.000,4815.9839580,N,12416.7099758,W,2,27,0.6,-0.216,M,-20.063,M,,*49
$GPGGA,140056.500,4815.9837469,N,12416.7094310,W,2,27,0.6,-0.216,M,-20.063,M,,*41
$GPGGA,140057.000,4815.9835229,N,12416.7089271,W,2,27,0.6,-0.206,M,-20.063,M,,*4E
$PADCP,135,20250530,065554.02,-25504.00
$GPGGA,140057.500,4815.9833196,N,12416.7083794,W,2,27,0.6,-0.185,M,-20.063,M,,*46
$GPGGA,140058.000,4815.9831317,N,12416.7078303,W,2,27,0.6,-0.167,M,-20.063,M,,*47
$GPGGA,140058.500,4815.9829222,N,12416.7072745,W,2,27,0.6,-0.173,M,-20.063,M,,*45
$GPGGA,140059.000,4815.9827189,N,12416.7067153,W,2,27,0.6,-0.173,M,-20.063,M,,*48
$PADCP,136,20250530,065556.00,-25504.00
$GPGGA,140059.500,4815.9825347,N,12416.7061360,W,2,27,0.6,-0.162,M,-20.063,M,,*4B
$GPGGA,140100.000,4815.9823865,N,12416.7055573,W,2,27,0.6,-0.150,M,-20.063,M,,*4C
$GPGGA,140100.500,4815.9822126,N,12416.7049751,W,2,27,0.6,-0.163,M,-20.063,M,,*49
$GPGGA,140101.000,4815.9820170,N,12416.7044125,W,2,27,0.6,-0.189,M,-20.063,M,,*40
$PADCP,137,20250530,065558.00,-25504.00
$GPGGA,140101.500,4815.9818468,N,12416.7038302,W,2,27,0.6,-0.194,M,-20.063,M,,*42
$GPGGA,140102.000,4815.9817017,N,12416.7032613,W,2,27,0.6,-0.176,M,-20.063,M,,*44
$GPGGA,140102.500,4815.9815415,N,12416.7026854,W,2,27,0.6,-0.179,M,-20.063,M,,*42
$GPGGA,140103.000,4815.9814214,N,12416.7020974,W,2,27,0.6,-0.187,M,-20.063,M,,*44
$PADCP,138,20250530,065600.00,-25504.00
$GPGGA,140103.500,4815.9812697,N,12416.7015405,W,2,27,0.6,-0.212,M,-20.063,M,,*4A
$GPGGA,140104.000,4815.9811644,N,12416.7009793,W,2,27,0.6,-0.227,M,-20.063,M,,*42
$GPGGA,140104.500,4815.9810393,N,12416.7004239,W,2,27,0.6,-0.229,M,-20.063,M,,*4F
$GPGGA,140105.000,4815.9809246,N,12416.6998517,W,2,27,0.6,-0.225,M,-20.062,M,,*41
$PADCP,139,20250530,065602.00,-25504.00
$GPGGA,140105.500,4815.9808215,N,12416.6992953,W,2,27,0.6,-0.202,M,-20.063,M,,*41
$GPGGA,140106.000,4815.9806828,N,12416.6987528,W,2,27,0.6,-0.197,M,-20.063,M,,*46
$GPGGA,140106.500,4815.9805768,N,12416.6981661,W,2,27,0.6,-0.167,M,-20.062,M,,*4D
$GPGGA,140107.000,4815.9804303,N,12416.6975807,W,2,27,0.6,-0.141,M,-20.062,M,,*40
$PADCP,140,20250530,065604.00,-25504.00
$GPGGA,140107.500,4815.9803171,N,12416.6969788,W,2,27,0.6,-0.119,M,-20.062,M,,*4D
$GPGGA,140108.000,4815.9801853,N,12416.6963847,W,2,27,0.6,-0.100,M,-20.062,M,,*42
$GPGGA,140108.500,4815.9800429,N,12416.6958071,W,2,27,0.6,-0.114,M,-20.062,M,,*47
$GPGGA,140109.000,4815.9799198,N,12416.6951938,W,2,27,0.6,-0.125,M,-20.062,M,,*4C
$PADCP,141,20250530,065606.02,-25504.00
$GPGGA,140109.500,4815.9797655,N,12416.6946406,W,2,27,0.6,-0.155,M,-20.062,M,,*40
$GPGGA,140110.000,4815.9796362,N,12416.6940602,W,2,27,0.6,-0.165,M,-20.062,M,,*4E
$GPGGA,140110.500,4815.9794927,N,12416.6935326,W,2,27,0.6,-0.171,M,-20.062,M,,*46
$GPGGA,140111.000,4815.9793833,N,12416.6929672,W,2,27,0.6,-0.186,M,-20.062,M,,*40
$PADCP,142,20250530,065608.02,-25504.00
$GPGGA,140111.500,4815.9792503,N,12416.6924618,W,2,27,0.6,-0.188,M,-20.062,M,,*45
$GPGGA,140112.000,4815.9791076,N,12416.6919613,W,2,27,0.6,-0.194,M,-20.062,M,,*4F
$GPGGA,140112.500,4815.9789996,N,12416.6914143,W,2,27,0.6,-0.171,M,-20.062,M,,*40
$GPGGA,140113.000,4815.9788374,N,12416.6908926,W,2,27,0.6,-0.157,M,-20.062,M,,*41
$PADCP,143,20250530,065610.02,-25504.00
$GPGGA,140113.500,4815.9786835,N,12416.6903270,W,2,27,0.6,-0.133,M,-20.062,M,,*45
$GPGGA,140114.000,4815.9784924,N,12416.6897646,W,2,27,0.6,-0.108,M,-20.062,M,,*41
$GPGGA,140114.500,4815.9783344,N,12416.6891742,W,2,27,0.6,-0.105,M,-20.062,M,,*41
$GPGGA,140115.000,4815.9781732,N,12416.6885861,W,2,27,0.6,-0.094,M,-20.062,M,,*40
$PADCP,144,20250530,065612.02,-25504.00
$GPGGA,140115.500,4815.9779982,N,12416.6880273,W,2,27,0.6,-0.119,M,-20.062,M,,*4F
$GPGGA,140116.000,4815.9778226,N,12416.6874550,W,2,27,0.6,-0.143,M,-20.062,M,,*4F
$GPGGA,140116.500,4815.9776384,N,12416.6869026,W,2,27,0.6,-0.155,M,-20.062,M,,*42
$GPGGA,140117.000,4815.9774993,N,12416.6862882,W,2,27,0.6,-0.146,M,-20.062,M,,*47
$PADCP,145,20250530,065614.02,-25504.00
$GPGGA,140117.500,4815.9773377,N,12416.6857360,W,2,27,0.6,-0.131,M,-20.062,M,,*44
$GPGGA,140118.000,4815.9771519,N,12416.6851696,W,2,27,0.6,-0.154,M,-20.062,M,,*4B
$GPGGA,140118.500,4815.9769861,N,12416.6846158,W,2,27,0.6,-0.163,M,-20.062,M,,*42
$GPGGA,140119.000,4815.9768063,N,12416.6840672,W,2,27,0.6,-0.178,M,-20.062,M,,*4E
$PADCP,146,20250530,065616.02,-25504.00
$GPGGA,140119.500,4815.9766705,N,12416.6835100,W,2,27,0.6,-0.170,M,-20.062,M,,*4A
$GPGGA,140120.000,4815.9765077,N,12416.6829699,W,2,27,0.6,-0.166,M,-20.062,M,,*49
$GPGGA,140120.500,4815.9763614,N,12416.6823888,W,2,27,0.6,-0.163,M,-20.062,M,,*48
$GPGGA,140121.000,4815.9762112,N,12416.6818130,W,2,27,0.6,-0.147,M,-20.062,M,,*48
$PADCP,147,20250530,065618.00,-25504.00
$GPGGA,140121.500,4815.9760381,N,12416.6812368,W,2,27,0.6,-0.138,M,-20.062,M,,*4A
$GPGGA,140122.000,4815.9758906,N,12416.6806606,W,2,27,0.6,-0.117,M,-20.062,M,,*47
$GPGGA,140122.500,4815.9757267,N,12416.6800794,W,2,27,0.6,-0.109,M,-20.062,M,,*42
$GPGGA,140123.000,4815.9755590,N,12416.6795340,W,2,27,0.6,-0.111,M,-20.062,M,,*4C
$PADCP,148,20250530,065620.02,-25504.00
$GPGGA,140123.500,4815.9753958,N,12416.6789818,W,2,27,0.6,-0.111,M,-20.062,M,,*4C
$GPGGA,140124.000,4815.9752460,N,12416.6784327,W,2,27,0.6,-0.119,M,-20.062,M,,*4B
$GPGGA,140124.500,4815.9751054,N,12416.6778526,W,2,27,0.6,-0.129,M,-20.062,M,,*49
$GPGGA,140125.000,4815.9749645,N,12416.6772704,W,2,27,0.6,-0.129,M,-20.062,M,,*4A
$PADCP,149,20250530,065622.02,-25504.00
$GPGGA,140125.500,4815.9748003,N,12416.6766726,W,2,27,0.6,-0.125,M,-20.062,M,,*43
$GPGGA,140126.000,4815.9746510,N,12416.6760627,W,2,27,0.6,-0.106,M,-20.062,M,,*4B
$GPGGA,140126.500,4815.9745042,N,12416.6754382,W,2,27,0.6,-0.080,M,-20.062,M,,*4D
$GPGGA,140127.000,4815.9743473,N,12416.6748344,W,2,27,0.6,-0.079,M,-20.062,M,,*48
$PADCP,150,20250530,065624.00,-25504.00
$GPGGA,140127.500,4815.9741993,N,12416.6742016,W,2,27,0.6,-0.088,M,-20.062,M,,*4C
$GPGGA,140128.000,4815.9740405,N,12416.6736221,W,2,27,0.6,-0.107,M,-20.062,M,,*46
$GPGGA,140128.500,4815.9739240,N,12416.6729989,W,2,27,0.6,-0.116,M,-20.062,M,,*4D
$GPGGA,140129.000,4815.9737957,N,12416.6724191,W,2,27,0.6,-0.119,M,-20.062,M,,*49
$PADCP,151,20250530,065626.02,-25504.00
$GPGGA,140129.500,4815.9736646,N,12416.6718320,W,2,27,0.6,-0.130,M,-20.062,M,,*4E
$GPGGA,140130.000,4815.9735614,N,12416.6712468,W,2,27,0.6,-0.122,M,-20.062,M,,*45
$GPGGA,140130.500,4815.9734518,N,12416.6706531,W,2,27,0.6,-0.123,M,-20.062,M,,*47
$GPGGA,140131.000,4815.9733587,N,12416.6700379,W,2,27,0.6,-0.110,M,-20.062,M,,*4E
$PADCP,152,20250530,065628.02,-25504.00
$GPGGA,140131.500,4815.9732184,N,12416.6694202,W,2,27,0.6,-0.098,M,-20.062,M,,*4D
$GPGGA,140132.000,4815.9730896,N,12416.6687889,W,2,27,0.6,-0.080,M,-20.062,M,,*41
$GPGGA,140132.500,4815.9729722,N,12416.6681425,W,2,27,0.6,-0.054,M,-20.062,M,,*49
$GPGGA,140133.000,4815.9728563,N,12416.6675225,W,2,27,0.6,-0.048,M,-20.062,M,,*4B
$PADCP,153,20250530,065630.02,-25504.00
$GPGGA,140133.500,4815.9727398,N,12416.6668928,W,2,27,0.6,-0.062,M,-20.062,M,,*41
$GPGGA,140134.000,4815.9726106,N,12416.6662978,W,2,27,0.6,-0.086,M,-20.062,M,,*42
$GPGGA,140134.500,4815.9724985,N,12416.6656790,W,2,27,0.6,-0.100,M,-20.062,M,,*46
$GPGGA,140135.000,4815.9724195,N,12416.6650667,W,2,27,0.6,-0.075,M,-20.062,M,,*47
$PADCP,154,20250530,065632.02,-25504.00
$GPGGA,140135.500,4815.9723327,N,12416.6644459,W,2,27,0.6,-0.056,M,-20.062,M,,*45
$GPGGA,140136.000,4815.9722417,N,12416.6638198,W,2,27,0.6,-0.057,M,-20.062,M,,*44
$GPGGA,140136.500,4815.9721258,N,12416.6632069,W,2,27,0.6,-0.066,M,-20.062,M,,*48
$GPGGA,140137.000,4815.9720470,N,12416.6625535,W,2,27,0.6,-0.070,M,-20.062,M,,*4C
$PADCP,155,20250530,065634.00,-25504.00
$GPGGA,140137.500,4815.9719958,N,12416.6619164,W,2,27,0.6,-0.056,M,-20.062,M,,*4F
$GPGGA,140138.000,4815.9719212,N,12416.6612848,W,2,27,0.6,-0.071,M,-20.062,M,,*49
$GPGGA,140138.500,4815.9718319,N,12416.6606754,W,2,27,0.6,-0.096,M,-20.062,M,,*49
$GPGGA,140139.000,4815.9717468,N,12416.6600456,W,2,27,0.6,-0.107,M,-20.062,M,,*4D
$PADCP,156,20250530,065636.00,-25504.00
$GPGGA,140139.500,4815.9717083,N,12416.6594203,W,2,27,0.6,-0.101,M,-20.062,M,,*47
$GPGGA,140140.000,4815.9716538,N,12416.6588104,W,2,27,0.6,-0.090,M,-20.062,M,,*48
$GPGGA,140140.500,4815.9715842,N,12416.6582139,W,2,27,0.6,-0.088,M,-20.062,M,,*43
$GPGGA,140141.000,4815.9715099,N,12416.6575977,W,2,27,0.6,-0.072,M,-20.062,M,,*46
$PADCP,157,20250530,065638.02,-25504.00
$GPGGA,140141.500,4815.9714262,N,12416.6569907,W,2,27,0.6,-0.045,M,-20.062,M,,*4A
$GPGGA,140142.000,4815.9713808,N,12416.6563342,W,2,27,0.6,-0.006,M,-20.062,M,,*4B
$GPGGA,140142.500,4815.9712799,N,12416.6557228,W,2,27,0.6,0.010,M,-20.062,M,,*68
$GPGGA,140143.000,4815.9712054,N,12416.6550611,W,2,27,0.6,0.006,M,-20.062,M,,*64
$PADCP,158,20250530,065640.02,-25504.00
$GPGGA,140143.500,4815.9711380,N,12416.6544358,W,2,27,0.6,0.009,M,-20.062,M,,*6A
$GPGGA,140144.000,4815.9710570,N,12416.6538066,W,2,27,0.6,-0.013,M,-20.062,M,,*43
$GPGGA,140144.500,4815.9709998,N,12416.6531831,W,2,27,0.6,-0.012,M,-20.062,M,,*46
$GPGGA,140145.000,4815.9709157,N,12416.6525920,W,2,27,0.6,-0.018,M,-20.062,M,,*47
$PADCP,159,20250530,065642.02,-25504.00
$GPGGA,140145.500,4815.9708658,N,12416.6519912,W,2,27,0.6,-0.023,M,-20.062,M,,*4D
$GPGGA,140146.000,4815.9707897,N,12416.6514031,W,2,27,0.6,-0.033,M,-20.062,M,,*4D
$GPGGA,140146.500,4815.9707116,N,12416.6508034,W,2,27,0.6,-0.057,M,-20.062,M,,*42
$GPGGA,140147.000,4815.9706499,N,12416.6501827,W,2,27,0.6,-0.046,M,-20.062,M,,*46
$PADCP,160,20250530,065644.02,-25504.00
$GPGGA,140147.500,4815.9705860,N,12416.6495754,W,2,27,0.6,-0.036,M,-20.062,M,,*4A
$GPGGA,140148.000,4815.9705341,N,12416.6489292,W,2,27,0.6,-0.010,M,-20.061,M,,*4D
$GPGGA,140148.500,4815.9704228,N,12416.6483123,W,2,27,0.6,-0.011,M,-20.061,M,,*45
$GPGGA,140149.000,4815.9703272,N,12416.6476613,W,2,27,0.6,-0.005,M,-20.061,M,,*42
$PADCP,161,20250530,065646.02,-25504.00
$GPGGA,140149.500,4815.9702547,N,12416.6470313,W,2,27,0.6,0.017,M,-20.061,M,,*6A
$GPGGA,140150.000,4815.9701773,N,12416.6464069,W,2,27,0.6,0.012,M,-20.061,M,,*6F
$GPGGA,140150.500,4815.9700861,N,12416.6458009,W,2,27,0.6,0.001,M,-20.061,M,,*6C
$GPGGA,140151.000,4815.9699743,N,12416.6451964,W,2,27,0.6,-0.019,M,-20.061,M,,*49
$PADCP,162,20250530,065648.02,-25504.00
$GPGGA,140151.500,4815.9698982,N,12416.6445962,W,2,27,0.6,-0.006,M,-20.061,M,,*43
